{"STATION": [{"STATUS": "ACTIVE", "MNET_ID": "1", "ELEVATION": "1486", "NAME": "Phoenix, Phoenix-Deer Valley Municipal Airport", "STID": "KDVT", "LONGITUDE": "-112.06618", "STATE": "AZ", "LATITUDE": "33.69026", "TIMEZONE": "America/Phoenix", "ID": "165"}, {"STATUS": "ACTIVE", "MNET_ID": "1", "ELEVATION": "1391", "NAME": "Mesa / Falcon Field", "STID": "KFFZ", "LONGITUDE": "-111.73333", "STATE": "AZ", "LATITUDE": "33.46667", "TIMEZONE": "America/Phoenix", "ID": "187"}, {"STATUS": "ACTIVE", "MNET_ID": "1", "ELEVATION": "859", "NAME": "Gila Bend Air Force Auxiliary Field", "STID": "KGXF", "LONGITUDE": "-112.72", "STATE": "AZ", "LATITUDE": "32.8875", "TIMEZONE": "America/Phoenix", "ID": "194"}, {"STATUS": "ACTIVE", "MNET_ID": "1", "ELEVATION": "1066", "NAME": "Glendale, Glendale Municipal Airport", "STID": "KGEU", "LONGITUDE": "-112.29528", "STATE": "AZ", "LATITUDE": "33.52722", "TIMEZONE": "America/Phoenix", "ID": "199"}, {"STATUS": "ACTIVE", "MNET_ID": "1", "ELEVATION": "968", "NAME": "Goodyear Municipal", "STID": "KGYR", "LONGITUDE": "-112.38333", "STATE": "AZ", "LATITUDE": "33.41667", "TIMEZONE": "America/Phoenix", "ID": "209"}, {"STATUS": "ACTIVE", "MNET_ID": "1", "ELEVATION": "1381", "NAME": "Phoenix-Mesa Gateway Airport", "STID": "KIWA", "LONGITUDE": "-111.65", "STATE": "AZ", "LATITUDE": "33.31667", "TIMEZONE": "America/Phoenix", "ID": "230"}, {"STATUS": "ACTIVE", "MNET_ID": "1", "ELEVATION": "1089", "NAME": "Luke Air Force Base / Phoenix", "STID": "KLUF", "LONGITUDE": "-112.38333", "STATE": "AZ", "LATITUDE": "33.53333", "TIMEZONE": "America/Phoenix", "ID": "253"}, {"STATUS": "ACTIVE", "MNET_ID": "1", "ELEVATION": "1115", "NAME": "Phoenix, Phoenix Sky Harbor International Airport", "STID": "KPHX", "LONGITUDE": "-112.003465", "STATE": "AZ", "LATITUDE": "33.427799", "TIMEZONE": "America/Phoenix", "ID": "328"}, {"STATUS": "ACTIVE", "MNET_ID": "1", "ELEVATION": "1509", "NAME": "Scottsdale, Scottsdale Airport", "STID": "KSDL", "LONGITUDE": "-111.91056", "STATE": "AZ", "LATITUDE": "33.62278", "TIMEZONE": "America/Phoenix", "ID": "373"}, {"STATUS": "ACTIVE", "MNET_ID": "21", "ELEVATION": "1220", "NAME": "ACDC @ 67th Ave.", "STID": "MA67", "LONGITUDE": "-112.2", "STATE": "AZ", "LATITUDE": "33.62", "TIMEZONE": "America/Phoenix", "ID": "913"}, {"STATUS": "ACTIVE", "MNET_ID": "21", "ELEVATION": "2960", "NAME": "Carefree Ranch", "STID": "MACR", "LONGITUDE": "-111.85", "STATE": "AZ", "LATITUDE": "33.87", "TIMEZONE": "America/Phoenix", "ID": "914"}, {"STATUS": "ACTIVE", "MNET_ID": "21", "ELEVATION": "1270", "NAME": "Crossroads Park", "STID": "MACP", "LONGITUDE": "-111.74", "STATE": "AZ", "LATITUDE": "33.32", "TIMEZONE": "America/Phoenix", "ID": "916"}, {"STATUS": "ACTIVE", "MNET_ID": "21", "ELEVATION": "1050", "NAME": "Durango Complex", "STID": "MADC", "LONGITUDE": "-112.12", "STATE": "AZ", "LATITUDE": "33.42", "TIMEZONE": "America/Phoenix", "ID": "917"}, {"STATUS": "ACTIVE", "MNET_ID": "21", "ELEVATION": "1424", "NAME": "Estrella Fan", "STID": "MAEF", "LONGITUDE": "-112.32", "STATE": "AZ", "LATITUDE": "33.27", "TIMEZONE": "America/Phoenix", "ID": "918"}, {"STATUS": "ACTIVE", "MNET_ID": "21", "ELEVATION": "1665", "NAME": "Fountain Hills Fire Dept.", "STID": "MAFH", "LONGITUDE": "-111.7251", "STATE": "AZ", "LATITUDE": "33.6111", "TIMEZONE": "America/Phoenix", "ID": "919"}, {"STATUS": "ACTIVE", "MNET_ID": "21", "ELEVATION": "1560", "NAME": "Gila Bend Mountains", "STID": "MAGB", "LONGITUDE": "-113.2", "STATE": "AZ", "LATITUDE": "33.24", "TIMEZONE": "America/Phoenix", "ID": "920"}, {"STATUS": "ACTIVE", "MNET_ID": "21", "ELEVATION": "5197", "NAME": "Humboldt Mountain", "STID": "MAHM", "LONGITUDE": "-111.79", "STATE": "AZ", "LATITUDE": "33.97", "TIMEZONE": "America/Phoenix", "ID": "923"}, {"STATUS": "ACTIVE", "MNET_ID": "21", "ELEVATION": "1255", "NAME": "Osborn Rd. @ 64th St.", "STID": "MAIS", "LONGITUDE": "-111.94267", "STATE": "AZ", "LATITUDE": "33.48511", "TIMEZONE": "America/Phoenix", "ID": "924"}, {"STATUS": "ACTIVE", "MNET_ID": "21", "ELEVATION": "2178", "NAME": "Pima Rd. @ Jomax Rd.", "STID": "MAPJ", "LONGITUDE": "-111.89", "STATE": "AZ", "LATITUDE": "33.72", "TIMEZONE": "America/Phoenix", "ID": "927"}, {"STATUS": "ACTIVE", "MNET_ID": "21", "ELEVATION": "1549", "NAME": "Saguaro Lake", "STID": "MAGU", "LONGITUDE": "-111.54", "STATE": "AZ", "LATITUDE": "33.58", "TIMEZONE": "America/Phoenix", "ID": "928"}, {"STATUS": "ACTIVE", "MNET_ID": "21", "ELEVATION": "1250", "NAME": "South Mountain Fan", "STID": "MASF", "LONGITUDE": "-112.14", "STATE": "AZ", "LATITUDE": "33.31", "TIMEZONE": "America/Phoenix", "ID": "929"}, {"STATUS": "ACTIVE", "MNET_ID": "21", "ELEVATION": "2136", "NAME": "South Mountain Park", "STID": "MASP", "LONGITUDE": "-112.03", "STATE": "AZ", "LATITUDE": "33.34", "TIMEZONE": "America/Phoenix", "ID": "930"}, {"STATUS": "ACTIVE", "MNET_ID": "21", "ELEVATION": "3993", "NAME": "Thompson Peak", "STID": "MATP", "LONGITUDE": "-111.82", "STATE": "AZ", "LATITUDE": "33.64", "TIMEZONE": "America/Phoenix", "ID": "931"}, {"STATUS": "ACTIVE", "MNET_ID": "21", "ELEVATION": "1447", "NAME": "Thunderbird Academy", "STID": "MATA", "LONGITUDE": "-111.92", "STATE": "AZ", "LATITUDE": "33.6", "TIMEZONE": "America/Phoenix", "ID": "932"}, {"STATUS": "ACTIVE", "MNET_ID": "21", "ELEVATION": "1604", "NAME": "Tiger Wash Fan", "STID": "MATW", "LONGITUDE": "-113.31", "STATE": "AZ", "LATITUDE": "33.67", "TIMEZONE": "America/Phoenix", "ID": "933"}, {"STATUS": "ACTIVE", "MNET_ID": "21", "ELEVATION": "2113", "NAME": "Usery Park WS", "STID": "MAUP", "LONGITUDE": "-111.61", "STATE": "AZ", "LATITUDE": "33.48", "TIMEZONE": "America/Phoenix", "ID": "934"}, {"STATUS": "ACTIVE", "MNET_ID": "21", "ELEVATION": "2382", "NAME": "Wickenburg Airport", "STID": "MAWA", "LONGITUDE": "-112.8", "STATE": "AZ", "LATITUDE": "33.97", "TIMEZONE": "America/Phoenix", "ID": "935"}, {"STATUS": "ACTIVE", "MNET_ID": "39", "ELEVATION": "2149", "NAME": "Aguila", "STID": "AZM07", "LONGITUDE": "-113.19", "STATE": "AZ", "LATITUDE": "33.95", "TIMEZONE": "America/Phoenix", "ID": "2723"}, {"STATUS": "ACTIVE", "MNET_ID": "39", "ELEVATION": "997", "NAME": "Buckeye", "STID": "AZM26", "LONGITUDE": "-112.68", "STATE": "AZ", "LATITUDE": "33.4", "TIMEZONE": "America/Phoenix", "ID": "2725"}, {"STATUS": "ACTIVE", "MNET_ID": "39", "ELEVATION": "1148", "NAME": "Harquahala", "STID": "AZM23", "LONGITUDE": "-113.12", "STATE": "AZ", "LATITUDE": "33.48", "TIMEZONE": "America/Phoenix", "ID": "2730"}, {"STATUS": "INACTIVE", "MNET_ID": "39", "ELEVATION": "1033", "NAME": "Laveen", "STID": "AZM21", "LONGITUDE": "-112.15", "STATE": "AZ", "LATITUDE": "33.38", "TIMEZONE": "America/Phoenix", "ID": "2731"}, {"STATUS": "INACTIVE", "MNET_ID": "39", "ELEVATION": "1014", "NAME": "Litchfield", "STID": "AZM11", "LONGITUDE": "-112.4", "STATE": "AZ", "LATITUDE": "33.47", "TIMEZONE": "America/Phoenix", "ID": "2732"}, {"STATUS": "ACTIVE", "MNET_ID": "39", "ELEVATION": "719", "NAME": "Paloma", "STID": "AZM19", "LONGITUDE": "-112.9", "STATE": "AZ", "LATITUDE": "32.93", "TIMEZONE": "America/Phoenix", "ID": "2736"}, {"STATUS": "ACTIVE", "MNET_ID": "39", "ELEVATION": "1099", "NAME": "Phoenix Encanto", "STID": "AZM15", "LONGITUDE": "-112.1", "STATE": "AZ", "LATITUDE": "33.48", "TIMEZONE": "America/Phoenix", "ID": "2738"}, {"STATUS": "ACTIVE", "MNET_ID": "39", "ELEVATION": "1316", "NAME": "Phoenix Greenway", "STID": "AZM12", "LONGITUDE": "-112.11", "STATE": "AZ", "LATITUDE": "33.62", "TIMEZONE": "America/Phoenix", "ID": "2739"}, {"STATUS": "ACTIVE", "MNET_ID": "39", "ELEVATION": "1411", "NAME": "Queen Creek", "STID": "AZM22", "LONGITUDE": "-111.64", "STATE": "AZ", "LATITUDE": "33.26", "TIMEZONE": "America/Phoenix", "ID": "2740"}, {"STATUS": "INACTIVE", "MNET_ID": "39", "ELEVATION": "1539", "NAME": "Scottsdale", "STID": "AZM18", "LONGITUDE": "-111.9", "STATE": "AZ", "LATITUDE": "33.64", "TIMEZONE": "America/Phoenix", "ID": "2743"}, {"STATUS": "INACTIVE", "MNET_ID": "39", "ELEVATION": "1335", "NAME": "Waddell", "STID": "AZM10", "LONGITUDE": "-112.46", "STATE": "AZ", "LATITUDE": "33.62", "TIMEZONE": "America/Phoenix", "ID": "2745"}, {"STATUS": "ACTIVE", "MNET_ID": "21", "ELEVATION": "2001", "NAME": "Horseshoe Lake", "STID": "MAHL", "LONGITUDE": "-111.71", "STATE": "AZ", "LATITUDE": "33.98", "TIMEZONE": "America/Phoenix", "ID": "3190"}, {"STATUS": "ACTIVE", "MNET_ID": "21", "ELEVATION": "1670", "NAME": "Bartlett Lake", "STID": "MABL", "LONGITUDE": "-111.64", "STATE": "AZ", "LATITUDE": "33.84", "TIMEZONE": "America/Phoenix", "ID": "3191"}, {"STATUS": "ACTIVE", "MNET_ID": "21", "ELEVATION": "751", "NAME": "Gila Bend Landfill", "STID": "MAGL", "LONGITUDE": "-112.68", "STATE": "AZ", "LATITUDE": "32.99", "TIMEZONE": "America/Phoenix", "ID": "3710"}, {"STATUS": "ACTIVE", "MNET_ID": "2", "ELEVATION": "1855", "NAME": "BELMONT", "STID": "BLMA3", "LONGITUDE": "-112.922861", "STATE": "AZ", "LATITUDE": "33.674111", "TIMEZONE": "America/Phoenix", "ID": "3715"}, {"STATUS": "ACTIVE", "MNET_ID": "39", "ELEVATION": "1700", "NAME": "Desert Ridge", "STID": "AZM27", "LONGITUDE": "-111.965", "STATE": "AZ", "LATITUDE": "33.688", "TIMEZONE": "America/Phoenix", "ID": "6351"}, {"STATUS": "ACTIVE", "MNET_ID": "65", "ELEVATION": "1414", "NAME": "KE7TR-8 Mesa", "STID": "AR051", "LONGITUDE": "-111.70304", "STATE": "AZ", "LATITUDE": "33.43250", "TIMEZONE": "America/Phoenix", "ID": "7730"}, {"STATUS": "ACTIVE", "MNET_ID": "65", "ELEVATION": "1949", "NAME": "CW0607 North Scottsdale", "STID": "C0607", "LONGITUDE": "-111.91033", "STATE": "AZ", "LATITUDE": "33.70500", "TIMEZONE": "America/Phoenix", "ID": "7925"}, {"STATUS": "INACTIVE", "MNET_ID": "65", "ELEVATION": "1245", "NAME": "CW1356 Phoenix", "STID": "C1356", "LONGITUDE": "-112.05967", "STATE": "AZ", "LATITUDE": "33.55367", "TIMEZONE": "America/Phoenix", "ID": "8606"}, {"STATUS": "INACTIVE", "MNET_ID": "65", "ELEVATION": "1198", "NAME": "N7BIV Glendale", "STID": "AR195", "LONGITUDE": "-112.1963", "STATE": "AZ", "LATITUDE": " 33.6032", "TIMEZONE": "America/Phoenix", "ID": "8633"}, {"STATUS": "INACTIVE", "MNET_ID": "65", "ELEVATION": "1099", "NAME": "N7TCF Phoenix", "STID": "AR199", "LONGITUDE": "-112.0103", "STATE": "AZ", "LATITUDE": " 33.4762", "TIMEZONE": "America/Phoenix", "ID": "8637"}, {"STATUS": "ACTIVE", "MNET_ID": "65", "ELEVATION": "961", "NAME": "CW1466 Goodyear", "STID": "C1466", "LONGITUDE": "-112.40312", "STATE": "AZ", "LATITUDE": "33.45859", "TIMEZONE": "America/Phoenix", "ID": "8726"}, {"STATUS": "ACTIVE", "MNET_ID": "65", "ELEVATION": "1726", "NAME": "K0JDN Phoenix", "STID": "AR264", "LONGITUDE": "-111.9918", "STATE": "AZ", "LATITUDE": " 33.7212", "TIMEZONE": "America/Phoenix", "ID": "8846"}, {"STATUS": "ACTIVE", "MNET_ID": "39", "ELEVATION": "1202", "NAME": "Mesa", "STID": "AZM29", "LONGITUDE": "-111.8675", "STATE": "AZ", "LATITUDE": "33.3867", "TIMEZONE": "America/Phoenix", "ID": "8875"}, {"STATUS": "INACTIVE", "MNET_ID": "65", "ELEVATION": "3822", "NAME": "CW1686 Chandler", "STID": "C1686", "LONGITUDE": "-111.8335", "STATE": "AZ", "LATITUDE": " 33.3168", "TIMEZONE": "America/Phoenix", "ID": "8970"}, {"STATUS": "INACTIVE", "MNET_ID": "65", "ELEVATION": "1312", "NAME": "CW1730 Chandler", "STID": "C1730", "LONGITUDE": "-111.8735", "STATE": "AZ", "LATITUDE": " 33.2395", "TIMEZONE": "America/Phoenix", "ID": "9028"}, {"STATUS": "ACTIVE", "MNET_ID": "65", "ELEVATION": "1198", "NAME": "CW1840 Glendale", "STID": "C1840", "LONGITUDE": "-112.16917", "STATE": "AZ", "LATITUDE": "33.57206", "TIMEZONE": "America/Phoenix", "ID": "9112"}, {"STATUS": "INACTIVE", "MNET_ID": "65", "ELEVATION": "1152", "NAME": "CW1737 Glendale", "STID": "C1737", "LONGITUDE": "-112.1000", "STATE": "AZ", "LATITUDE": " 33.6000", "TIMEZONE": "America/Phoenix", "ID": "9127"}, {"STATUS": "INACTIVE", "MNET_ID": "65", "ELEVATION": "1526", "NAME": "CW1791 Mesa", "STID": "C1791", "LONGITUDE": "-111.6487", "STATE": "AZ", "LATITUDE": " 33.3658", "TIMEZONE": "America/Phoenix", "ID": "9157"}, {"STATUS": "ACTIVE", "MNET_ID": "65", "ELEVATION": "1319", "NAME": "CW2014 Mesa", "STID": "C2014", "LONGITUDE": "-111.74867", "STATE": "AZ", "LATITUDE": "33.42633", "TIMEZONE": "America/Phoenix", "ID": "9306"}, {"STATUS": "INACTIVE", "MNET_ID": "65", "ELEVATION": "1640", "NAME": "CW2017 Mesa", "STID": "C2017", "LONGITUDE": "-111.7090", "STATE": "AZ", "LATITUDE": " 33.3845", "TIMEZONE": "America/Phoenix", "ID": "9311"}, {"STATUS": "INACTIVE", "MNET_ID": "65", "ELEVATION": "1312", "NAME": "KB7TBT Phoenix", "STID": "AR403", "LONGITUDE": "-112.0500", "STATE": "AZ", "LATITUDE": " 33.4062", "TIMEZONE": "America/Phoenix", "ID": "9324"}, {"STATUS": "INACTIVE", "MNET_ID": "65", "ELEVATION": "1299", "NAME": "CW2039 Peoria", "STID": "C2039", "LONGITUDE": "-112.2478", "STATE": "AZ", "LATITUDE": " 33.6942", "TIMEZONE": "America/Phoenix", "ID": "9344"}, {"STATUS": "INACTIVE", "MNET_ID": "65", "ELEVATION": "3780", "NAME": "CW2167 Scottsdale", "STID": "C2167", "LONGITUDE": "-111.8805", "STATE": "AZ", "LATITUDE": " 33.5095", "TIMEZONE": "America/Phoenix", "ID": "10316"}, {"STATUS": "INACTIVE", "MNET_ID": "65", "ELEVATION": "1027", "NAME": "KD7YAT-3 Goodyear", "STID": "AR464", "LONGITUDE": "-112.43033", "STATE": "AZ", "LATITUDE": "33.35200", "TIMEZONE": "America/Phoenix", "ID": "10334"}, {"STATUS": "ACTIVE", "MNET_ID": "21", "ELEVATION": "1335", "NAME": "McMicken Floodway", "STID": "MAMC", "LONGITUDE": "-112.40861", "STATE": "AZ", "LATITUDE": "33.68531", "TIMEZONE": "America/Phoenix", "ID": "10346"}, {"STATUS": "INACTIVE", "MNET_ID": "65", "ELEVATION": "1145", "NAME": "CW2069 Phoenix", "STID": "C2069", "LONGITUDE": "-112.14751", "STATE": "AZ", "LATITUDE": "33.51474", "TIMEZONE": "America/Phoenix", "ID": "10352"}, {"STATUS": "INACTIVE", "MNET_ID": "35", "ELEVATION": "1236", "NAME": "Gilbert", "STID": "H0020", "LONGITUDE": "-111.7407", "STATE": "AZ", "LATITUDE": "33.3445", "TIMEZONE": "America/Phoenix", "ID": "10658"}, {"STATUS": "INACTIVE", "MNET_ID": "35", "ELEVATION": "1322", "NAME": "Phoenix", "STID": "H0322", "LONGITUDE": "-112.0536", "STATE": "AZ", "LATITUDE": "33.56546", "TIMEZONE": "America/Phoenix", "ID": "10762"}, {"STATUS": "INACTIVE", "MNET_ID": "35", "ELEVATION": "1194", "NAME": "Chandler", "STID": "H0462", "LONGITUDE": "-111.8648", "STATE": "AZ", "LATITUDE": "33.2649", "TIMEZONE": "America/Phoenix", "ID": "10800"}, {"STATUS": "INACTIVE", "MNET_ID": "65", "ELEVATION": "3898", "NAME": "CW1869 Chandler", "STID": "C1869", "LONGITUDE": "-111.9607", "STATE": "AZ", "LATITUDE": " 33.3158", "TIMEZONE": "America/Phoenix", "ID": "10859"}, {"STATUS": "INACTIVE", "MNET_ID": "65", "ELEVATION": "1211", "NAME": "CW2373 Tempe", "STID": "C2373", "LONGITUDE": "-111.9833", "STATE": "AZ", "LATITUDE": " 33.6333", "TIMEZONE": "America/Phoenix", "ID": "10999"}, {"STATUS": "ACTIVE", "MNET_ID": "65", "ELEVATION": "1250", "NAME": "CW2582 Mesa", "STID": "C2582", "LONGITUDE": "-111.88300", "STATE": "AZ", "LATITUDE": "33.40250", "TIMEZONE": "America/Phoenix", "ID": "11310"}, {"STATUS": "ACTIVE", "MNET_ID": "65", "ELEVATION": "1142", "NAME": "CW2674 Youngtown", "STID": "C2674", "LONGITUDE": "-112.30816", "STATE": "AZ", "LATITUDE": "33.56982", "TIMEZONE": "America/Phoenix", "ID": "11412"}, {"STATUS": "ACTIVE", "MNET_ID": "1", "ELEVATION": "1243", "NAME": "Chandler, Chandler Municipal Airport", "STID": "KCHD", "LONGITUDE": "-111.81111", "STATE": "AZ", "LATITUDE": "33.26917", "TIMEZONE": "America/Phoenix", "ID": "12297"}, {"STATUS": "ACTIVE", "MNET_ID": "65", "ELEVATION": "4066", "NAME": "WTMWX White Tank Mountain", "STID": "AR701", "LONGITUDE": "-112.57867", "STATE": "AZ", "LATITUDE": "33.57550", "TIMEZONE": "America/Phoenix", "ID": "13200"}, {"STATUS": "INACTIVE", "MNET_ID": "65", "ELEVATION": "1661", "NAME": "CW3279 Mesa", "STID": "C3279", "LONGITUDE": "-111.6223", "STATE": "AZ", "LATITUDE": "33.4382", "TIMEZONE": "America/Phoenix", "ID": "13258"}, {"STATUS": "ACTIVE", "MNET_ID": "21", "ELEVATION": "1130", "NAME": "GateWay Community College", "STID": "MAGC", "LONGITUDE": "-111.99806", "STATE": "AZ", "LATITUDE": "33.45028", "TIMEZONE": "America/Phoenix", "ID": "13312"}, {"STATUS": "INACTIVE", "MNET_ID": "65", "ELEVATION": "1201", "NAME": "K0HJH Surprise", "STID": "AR710", "LONGITUDE": "-112.3245", "STATE": "AZ", "LATITUDE": "33.6338", "TIMEZONE": "America/Phoenix", "ID": "13326"}, {"STATUS": "ACTIVE", "MNET_ID": "65", "ELEVATION": "1480", "NAME": "KD7DR-5 Mesa", "STID": "AR773", "LONGITUDE": "-111.58584", "STATE": "AZ", "LATITUDE": "33.34108", "TIMEZONE": "America/Phoenix", "ID": "13720"}, {"STATUS": "INACTIVE", "MNET_ID": "65", "ELEVATION": "1290", "NAME": "CW3765 Phoenix", "STID": "C3765", "LONGITUDE": "-111.95917", "STATE": "AZ", "LATITUDE": "33.46750", "TIMEZONE": "America/Phoenix", "ID": "13895"}, {"STATUS": "ACTIVE", "MNET_ID": "65", "ELEVATION": "1469", "NAME": "CW3794 Phoenix", "STID": "C3794", "LONGITUDE": "-112.02783", "STATE": "AZ", "LATITUDE": "33.65300", "TIMEZONE": "America/Phoenix", "ID": "13908"}, {"STATUS": "ACTIVE", "MNET_ID": "65", "ELEVATION": "1135", "NAME": "CW3846 Goodyear", "STID": "C3846", "LONGITUDE": "-112.41667", "STATE": "AZ", "LATITUDE": "33.33333", "TIMEZONE": "America/Phoenix", "ID": "13965"}, {"STATUS": "INACTIVE", "MNET_ID": "65", "ELEVATION": "1201", "NAME": "CW4192 Phoenix", "STID": "C4192", "LONGITUDE": "-111.9817", "STATE": "AZ", "LATITUDE": " 33.4990", "TIMEZONE": "America/Phoenix", "ID": "14326"}, {"STATUS": "INACTIVE", "MNET_ID": "65", "ELEVATION": "1312", "NAME": "CW4159 Buckeye", "STID": "C4159", "LONGITUDE": "-112.4922", "STATE": "AZ", "LATITUDE": " 33.4653", "TIMEZONE": "America/Phoenix", "ID": "14350"}, {"STATUS": "ACTIVE", "MNET_ID": "69", "ELEVATION": "1372", "NAME": "Tempe", "STID": "SA31", "LONGITUDE": "-111.95200", "STATE": "AZ", "LATITUDE": "33.44650", "TIMEZONE": "America/Phoenix", "ID": "14583"}, {"STATUS": "INACTIVE", "MNET_ID": "65", "ELEVATION": "1312", "NAME": "CW4532 Surprise", "STID": "C4532", "LONGITUDE": "-112.3987", "STATE": "AZ", "LATITUDE": "33.6212", "TIMEZONE": "America/Phoenix", "ID": "14692"}, {"STATUS": "INACTIVE", "MNET_ID": "65", "ELEVATION": "1259", "NAME": "W7WLA Mesa", "STID": "AS128", "LONGITUDE": "-111.7767", "STATE": "AZ", "LATITUDE": "33.4174", "TIMEZONE": "America/Phoenix", "ID": "15327"}, {"STATUS": "INACTIVE", "MNET_ID": "65", "ELEVATION": "1473", "NAME": "CW5668 Phoenix", "STID": "C5668", "LONGITUDE": "-112.00705", "STATE": "AZ", "LATITUDE": "33.64556", "TIMEZONE": "America/Phoenix", "ID": "15703"}, {"STATUS": "ACTIVE", "MNET_ID": "21", "ELEVATION": "1810", "NAME": "Desert Mountain School", "STID": "MADM", "LONGITUDE": "-112.07717", "STATE": "AZ", "LATITUDE": "33.80933", "TIMEZONE": "America/Phoenix", "ID": "16480"}, {"STATUS": "ACTIVE", "MNET_ID": "21", "ELEVATION": "1015", "NAME": "Buckeye FRS #1", "STID": "MABU", "LONGITUDE": "-112.6252", "STATE": "AZ", "LATITUDE": "33.425", "TIMEZONE": "America/Phoenix", "ID": "16483"}, {"STATUS": "ACTIVE", "MNET_ID": "65", "ELEVATION": "1204", "NAME": "KC7FQC Phoenix", "STID": "AS304", "LONGITUDE": "-112.19218", "STATE": "AZ", "LATITUDE": "33.59784", "TIMEZONE": "America/Phoenix", "ID": "16526"}, {"STATUS": "INACTIVE", "MNET_ID": "65", "ELEVATION": "2162", "NAME": "KD7RMT New River", "STID": "AS308", "LONGITUDE": "-112.11267", "STATE": "AZ", "LATITUDE": "33.93967", "TIMEZONE": "America/Phoenix", "ID": "16561"}, {"STATUS": "INACTIVE", "MNET_ID": "65", "ELEVATION": "1801", "NAME": "CW4975 Scottsdale", "STID": "C4975", "LONGITUDE": "-111.80467", "STATE": "AZ", "LATITUDE": "33.93000", "TIMEZONE": "America/Phoenix", "ID": "16644"}, {"STATUS": "ACTIVE", "MNET_ID": "65", "ELEVATION": "1220", "NAME": "CW6490 Gilbert", "STID": "C6490", "LONGITUDE": "-111.81195", "STATE": "AZ", "LATITUDE": "33.37191", "TIMEZONE": "America/Phoenix", "ID": "16919"}, {"STATUS": "ACTIVE", "MNET_ID": "65", "ELEVATION": "1252", "NAME": "CW6682 Mesa", "STID": "C6682", "LONGITUDE": "-111.80500", "STATE": "AZ", "LATITUDE": "33.42751", "TIMEZONE": "America/Phoenix", "ID": "17536"}, {"STATUS": "INACTIVE", "MNET_ID": "65", "ELEVATION": "1288", "NAME": "K7PB-1 Surprise", "STID": "AS457", "LONGITUDE": "-112.42730", "STATE": "AZ", "LATITUDE": "33.64182", "TIMEZONE": "America/Phoenix", "ID": "17802"}, {"STATUS": "ACTIVE", "MNET_ID": "65", "ELEVATION": "2530", "NAME": "CW6892 Carefree", "STID": "C6892", "LONGITUDE": "-111.90157", "STATE": "AZ", "LATITUDE": "33.82671", "TIMEZONE": "America/Phoenix", "ID": "17888"}, {"STATUS": "INACTIVE", "MNET_ID": "65", "ELEVATION": "1093", "NAME": "CW7166 Glendale", "STID": "C7166", "LONGITUDE": "-112.23283", "STATE": "AZ", "LATITUDE": "33.51367", "TIMEZONE": "America/Phoenix", "ID": "18664"}, {"STATUS": "INACTIVE", "MNET_ID": "65", "ELEVATION": "2230", "NAME": "CW7476 Cave Creek", "STID": "C7476", "LONGITUDE": "-111.94289", "STATE": "AZ", "LATITUDE": "33.85408", "TIMEZONE": "America/Phoenix", "ID": "18909"}, {"STATUS": "ACTIVE", "MNET_ID": "21", "ELEVATION": "1350", "NAME": "McMicken Dam", "STID": "MAMD", "LONGITUDE": "-112.42350", "STATE": "AZ", "LATITUDE": "33.67700", "TIMEZONE": "America/Phoenix", "ID": "18985"}, {"STATUS": "INACTIVE", "MNET_ID": "65", "ELEVATION": "1312", "NAME": "CW7918 Gilbert", "STID": "C7918", "LONGITUDE": "-111.73133", "STATE": "AZ", "LATITUDE": "33.26060", "TIMEZONE": "America/Phoenix", "ID": "21329"}, {"STATUS": "INACTIVE", "MNET_ID": "65", "ELEVATION": "1086", "NAME": "W7PLZ-3 Litchfield Park", "STID": "AS629", "LONGITUDE": "-112.35314", "STATE": "AZ", "LATITUDE": "33.52868", "TIMEZONE": "America/Phoenix", "ID": "21332"}, {"STATUS": "INACTIVE", "MNET_ID": "65", "ELEVATION": "1191", "NAME": "NU7B Tempe", "STID": "AS698", "LONGITUDE": "-111.91600", "STATE": "AZ", "LATITUDE": "33.37283", "TIMEZONE": "America/Phoenix", "ID": "21829"}, {"STATUS": "INACTIVE", "MNET_ID": "65", "ELEVATION": "1447", "NAME": "CW8571 Phoenix", "STID": "C8571", "LONGITUDE": "-112.05717", "STATE": "AZ", "LATITUDE": "33.62050", "TIMEZONE": "America/Phoenix", "ID": "21883"}, {"STATUS": "INACTIVE", "MNET_ID": "65", "ELEVATION": "1322", "NAME": "CW8954 Phoenix", "STID": "C8954", "LONGITUDE": "-112.11320", "STATE": "AZ", "LATITUDE": "33.63119", "TIMEZONE": "America/Phoenix", "ID": "22182"}, {"STATUS": "ACTIVE", "MNET_ID": "21", "ELEVATION": "4520", "NAME": "Rackensack Canyon", "STID": "MRKC", "LONGITUDE": "-111.84506", "STATE": "AZ", "LATITUDE": "33.90164", "TIMEZONE": "America/Phoenix", "ID": "22378"}, {"STATUS": "INACTIVE", "MNET_ID": "65", "ELEVATION": "1142", "NAME": "CW9053 Youngtown", "STID": "C9053", "LONGITUDE": "-112.30817", "STATE": "AZ", "LATITUDE": "33.56967", "TIMEZONE": "America/Phoenix", "ID": "22524"}, {"STATUS": "INACTIVE", "MNET_ID": "65", "ELEVATION": "1240", "NAME": "CW9504 Surprise", "STID": "C9504", "LONGITUDE": "-112.40300", "STATE": "AZ", "LATITUDE": "33.61983", "TIMEZONE": "America/Phoenix", "ID": "22598"}, {"STATUS": "INACTIVE", "MNET_ID": "65", "ELEVATION": "1201", "NAME": "CW9156 Glendale", "STID": "C9156", "LONGITUDE": "-112.17030", "STATE": "AZ", "LATITUDE": "33.57900", "TIMEZONE": "America/Phoenix", "ID": "22828"}, {"STATUS": "INACTIVE", "MNET_ID": "65", "ELEVATION": "1275", "NAME": "CW9673 Sun City West", "STID": "C9673", "LONGITUDE": "-112.34622", "STATE": "AZ", "LATITUDE": "33.68489", "TIMEZONE": "America/Phoenix", "ID": "22929"}, {"STATUS": "ACTIVE", "MNET_ID": "65", "ELEVATION": "1014", "NAME": "CW9753 Avondale", "STID": "C9753", "LONGITUDE": "-112.33300", "STATE": "AZ", "LATITUDE": "33.47650", "TIMEZONE": "America/Phoenix", "ID": "22969"}, {"STATUS": "ACTIVE", "MNET_ID": "65", "ELEVATION": "1473", "NAME": "W7JKG Phoenix", "STID": "AS882", "LONGITUDE": "-112.00705", "STATE": "AZ", "LATITUDE": "33.64556", "TIMEZONE": "America/Phoenix", "ID": "23593"}, {"STATUS": "ACTIVE", "MNET_ID": "21", "ELEVATION": "1340", "NAME": "Mobile", "STID": "MAMO", "LONGITUDE": "-112.2441", "STATE": "AZ", "LATITUDE": "33.0384", "TIMEZONE": "America/Phoenix", "ID": "23624"}, {"STATUS": "ACTIVE", "MNET_ID": "21", "ELEVATION": "1805", "NAME": "Coyote Wash", "STID": "MACY", "LONGITUDE": "-112.9236", "STATE": "AZ", "LATITUDE": "33.6970", "TIMEZONE": "America/Phoenix", "ID": "23625"}, {"STATUS": "ACTIVE", "MNET_ID": "65", "ELEVATION": "1581", "NAME": "CW8541 Fountain Hills", "STID": "C8541", "LONGITUDE": "-111.73594", "STATE": "AZ", "LATITUDE": "33.61476", "TIMEZONE": "America/Phoenix", "ID": "23748"}, {"STATUS": "ACTIVE", "MNET_ID": "2", "ELEVATION": "1715", "NAME": "OATMAN", "STID": "OTMA3", "LONGITUDE": "-113.138667", "STATE": "AZ", "LATITUDE": "33.049944", "TIMEZONE": "America/Phoenix", "ID": "24100"}, {"STATUS": "ACTIVE", "MNET_ID": "65", "ELEVATION": "2031", "NAME": "DW0931 Scottsdale", "STID": "D0931", "LONGITUDE": "-111.88450", "STATE": "AZ", "LATITUDE": "33.69783", "TIMEZONE": "America/Phoenix", "ID": "24290"}, {"STATUS": "INACTIVE", "MNET_ID": "65", "ELEVATION": "1195", "NAME": "DW0977 Chandler", "STID": "D0977", "LONGITUDE": "-111.87800", "STATE": "AZ", "LATITUDE": "33.26233", "TIMEZONE": "America/Phoenix", "ID": "24356"}, {"STATUS": "ACTIVE", "MNET_ID": "21", "ELEVATION": "1815", "NAME": "Lake Pleasant", "STID": "MAPL", "LONGITUDE": "-112.27806", "STATE": "AZ", "LATITUDE": "33.84739", "TIMEZONE": "America/Phoenix", "ID": "24937"}, {"STATUS": "ACTIVE", "MNET_ID": "65", "ELEVATION": "1667", "NAME": "SVFLIR Phoenix", "STID": "AT096", "LONGITUDE": "-112.01733", "STATE": "AZ", "LATITUDE": "33.72333", "TIMEZONE": "America/Phoenix", "ID": "25144"}, {"STATUS": "ACTIVE", "MNET_ID": "65", "ELEVATION": "2674", "NAME": "DW1498 Carefree", "STID": "D1498", "LONGITUDE": "-111.91798", "STATE": "AZ", "LATITUDE": "33.87817", "TIMEZONE": "America/Phoenix", "ID": "25179"}, {"STATUS": "ACTIVE", "MNET_ID": "65", "ELEVATION": "1171", "NAME": "DW2214 Chandler", "STID": "D2214", "LONGITUDE": "-111.93417", "STATE": "AZ", "LATITUDE": "33.31800", "TIMEZONE": "America/Phoenix", "ID": "25328"}, {"STATUS": "ACTIVE", "MNET_ID": "65", "ELEVATION": "1316", "NAME": "DW2495 Gilbert", "STID": "D2495", "LONGITUDE": "-111.72511", "STATE": "AZ", "LATITUDE": "33.22865", "TIMEZONE": "America/Phoenix", "ID": "25543"}, {"STATUS": "ACTIVE", "MNET_ID": "65", "ELEVATION": "1273", "NAME": "K7ESQ Gilbert", "STID": "AT202", "LONGITUDE": "-111.72776", "STATE": "AZ", "LATITUDE": "33.29951", "TIMEZONE": "America/Phoenix", "ID": "25781"}, {"STATUS": "INACTIVE", "MNET_ID": "65", "ELEVATION": "1624", "NAME": "DW2912 Phoenix", "STID": "D2912", "LONGITUDE": "-111.65150", "STATE": "AZ", "LATITUDE": "33.44183", "TIMEZONE": "America/Phoenix", "ID": "25856"}, {"STATUS": "INACTIVE", "MNET_ID": "65", "ELEVATION": "1155", "NAME": "DW3104 Glendale", "STID": "D3104", "LONGITUDE": "-112.16083", "STATE": "AZ", "LATITUDE": "33.52450", "TIMEZONE": "America/Phoenix", "ID": "26013"}, {"STATUS": "ACTIVE", "MNET_ID": "65", "ELEVATION": "1669", "NAME": "DW3135 Mesa", "STID": "D3135", "LONGITUDE": "-111.64942", "STATE": "AZ", "LATITUDE": "33.44917", "TIMEZONE": "America/Phoenix", "ID": "26113"}, {"STATUS": "ACTIVE", "MNET_ID": "21", "ELEVATION": "1380", "NAME": "Phoenix Dam 2A", "STID": "MAPH", "LONGITUDE": "-112.06464", "STATE": "AZ", "LATITUDE": "33.60367", "TIMEZONE": "America/Phoenix", "ID": "26195"}, {"STATUS": "INACTIVE", "MNET_ID": "65", "ELEVATION": "1407", "NAME": "CW7425 Queen Creek", "STID": "C7425", "LONGITUDE": "-111.69833", "STATE": "AZ", "LATITUDE": "33.20972", "TIMEZONE": "America/Phoenix", "ID": "26255"}, {"STATUS": "ACTIVE", "MNET_ID": "65", "ELEVATION": "1312", "NAME": "DW3279 Glendale", "STID": "D3279", "LONGITUDE": "-112.14000", "STATE": "AZ", "LATITUDE": "33.64300", "TIMEZONE": "America/Phoenix", "ID": "26256"}, {"STATUS": "INACTIVE", "MNET_ID": "65", "ELEVATION": "1247", "NAME": "DW3345 Gilbert", "STID": "D3345", "LONGITUDE": "-111.77797", "STATE": "AZ", "LATITUDE": "33.33776", "TIMEZONE": "America/Phoenix", "ID": "26307"}, {"STATUS": "ACTIVE", "MNET_ID": "65", "ELEVATION": "1998", "NAME": "DW3160 Morristown", "STID": "D3160", "LONGITUDE": "-112.60390", "STATE": "AZ", "LATITUDE": "33.85115", "TIMEZONE": "America/Phoenix", "ID": "26329"}, {"STATUS": "INACTIVE", "MNET_ID": "65", "ELEVATION": "2061", "NAME": "DW3364 Scottsdale", "STID": "D3364", "LONGITUDE": "-111.93233", "STATE": "AZ", "LATITUDE": "33.73833", "TIMEZONE": "America/Phoenix", "ID": "26335"}, {"STATUS": "INACTIVE", "MNET_ID": "65", "ELEVATION": "1040", "NAME": "DW3498 Litchfield Park", "STID": "D3498", "LONGITUDE": "-112.32600", "STATE": "AZ", "LATITUDE": "33.52187", "TIMEZONE": "America/Phoenix", "ID": "26441"}, {"STATUS": "INACTIVE", "MNET_ID": "65", "ELEVATION": "1178", "NAME": "DW3721 Glendale", "STID": "D3721", "LONGITUDE": "-112.20135", "STATE": "AZ", "LATITUDE": "33.58643", "TIMEZONE": "America/Phoenix", "ID": "26587"}, {"STATUS": "INACTIVE", "MNET_ID": "65", "ELEVATION": "1302", "NAME": "DW3913 Mesa", "STID": "D3913", "LONGITUDE": "-111.73338", "STATE": "AZ", "LATITUDE": "33.39841", "TIMEZONE": "America/Phoenix", "ID": "26746"}, {"STATUS": "ACTIVE", "MNET_ID": "65", "ELEVATION": "1217", "NAME": "DW4174 Mesa", "STID": "D4174", "LONGITUDE": "-111.86107", "STATE": "AZ", "LATITUDE": "33.40051", "TIMEZONE": "America/Phoenix", "ID": "26860"}, {"STATUS": "ACTIVE", "MNET_ID": "65", "ELEVATION": "1362", "NAME": "DW4267 Phoenix", "STID": "D4267", "LONGITUDE": "-112.05282", "STATE": "AZ", "LATITUDE": "33.31340", "TIMEZONE": "America/Phoenix", "ID": "26914"}, {"STATUS": "INACTIVE", "MNET_ID": "65", "ELEVATION": "1216", "NAME": "DW4626 Gilbert", "STID": "D4626", "LONGITUDE": "-111.83250", "STATE": "AZ", "LATITUDE": "33.34917", "TIMEZONE": "America/Phoenix", "ID": "27198"}, {"STATUS": "INACTIVE", "MNET_ID": "65", "ELEVATION": "1444", "NAME": "DW4647 Phoenix", "STID": "D4647", "LONGITUDE": "-111.99620", "STATE": "AZ", "LATITUDE": "33.62835", "TIMEZONE": "America/Phoenix", "ID": "27200"}, {"STATUS": "ACTIVE", "MNET_ID": "65", "ELEVATION": "1296", "NAME": "DW4650 Gilbert", "STID": "D4650", "LONGITUDE": "-111.72050", "STATE": "AZ", "LATITUDE": "33.36700", "TIMEZONE": "America/Phoenix", "ID": "27201"}, {"STATUS": "ACTIVE", "MNET_ID": "65", "ELEVATION": "1706", "NAME": "DW4798 East Mesa", "STID": "D4798", "LONGITUDE": "-111.63217", "STATE": "AZ", "LATITUDE": "33.44233", "TIMEZONE": "America/Phoenix", "ID": "27400"}, {"STATUS": "ACTIVE", "MNET_ID": "65", "ELEVATION": "1115", "NAME": "DW4935 Phoenix", "STID": "D4935", "LONGITUDE": "-112.06683", "STATE": "AZ", "LATITUDE": "33.48850", "TIMEZONE": "America/Phoenix", "ID": "27460"}, {"STATUS": "ACTIVE", "MNET_ID": "65", "ELEVATION": "1270", "NAME": "DW5071 Gilbert", "STID": "D5071", "LONGITUDE": "-111.76550", "STATE": "AZ", "LATITUDE": "33.29350", "TIMEZONE": "America/Phoenix", "ID": "27619"}, {"STATUS": "ACTIVE", "MNET_ID": "136", "ELEVATION": "4635", "NAME": "Ft McD Yuma Frank-AZ", "STID": "AN006", "LONGITUDE": "-111.67690", "STATE": "AZ", "LATITUDE": "33.62920", "TIMEZONE": "America/Phoenix", "ID": "27677"}, {"STATUS": "INACTIVE", "MNET_ID": "136", "ELEVATION": "2407", "NAME": "Pinnacle Peak Club House", "STID": "AN008", "LONGITUDE": "-111.85270", "STATE": "AZ", "LATITUDE": "33.71230", "TIMEZONE": "America/Phoenix", "ID": "27689"}, {"STATUS": "INACTIVE", "MNET_ID": "136", "ELEVATION": "1242", "NAME": "North Phoenix", "STID": "AN004", "LONGITUDE": "-112.06630", "STATE": "AZ", "LATITUDE": "33.56030", "TIMEZONE": "America/Phoenix", "ID": "27692"}, {"STATUS": "INACTIVE", "MNET_ID": "136", "ELEVATION": "1261", "NAME": "Falcon Field Police Station", "STID": "AN005", "LONGITUDE": "-111.73310", "STATE": "AZ", "LATITUDE": "33.45220", "TIMEZONE": "America/Phoenix", "ID": "27694"}, {"STATUS": "INACTIVE", "MNET_ID": "136", "ELEVATION": "1114", "NAME": "Central Phoenix", "STID": "AN009", "LONGITUDE": "-112.04600", "STATE": "AZ", "LATITUDE": "33.45790", "TIMEZONE": "America/Phoenix", "ID": "27697"}, {"STATUS": "INACTIVE", "MNET_ID": "136", "ELEVATION": "1927", "NAME": "Cave Creek", "STID": "AN016", "LONGITUDE": "-112.01740", "STATE": "AZ", "LATITUDE": "33.82170", "TIMEZONE": "America/Phoenix", "ID": "27698"}, {"STATUS": "INACTIVE", "MNET_ID": "136", "ELEVATION": "1067", "NAME": "Greenwood", "STID": "AN011", "LONGITUDE": "-112.11750", "STATE": "AZ", "LATITUDE": "33.46090", "TIMEZONE": "America/Phoenix", "ID": "27701"}, {"STATUS": "INACTIVE", "MNET_ID": "136", "ELEVATION": "1150", "NAME": "Glendale Community College", "STID": "AN007", "LONGITUDE": "-112.19150", "STATE": "AZ", "LATITUDE": "33.56940", "TIMEZONE": "America/Phoenix", "ID": "27708"}, {"STATUS": "INACTIVE", "MNET_ID": "65", "ELEVATION": "1457", "NAME": "KC7LB Phoenix", "STID": "AT616", "LONGITUDE": "-112.16867", "STATE": "AZ", "LATITUDE": "33.72083", "TIMEZONE": "America/Phoenix", "ID": "28403"}, {"STATUS": "ACTIVE", "MNET_ID": "65", "ELEVATION": "1293", "NAME": "KE7MWT Gilbert", "STID": "AT681", "LONGITUDE": "-111.71447", "STATE": "AZ", "LATITUDE": "33.35112", "TIMEZONE": "America/Phoenix", "ID": "28655"}, {"STATUS": "ACTIVE", "MNET_ID": "65", "ELEVATION": "1329", "NAME": "DW5529 Phoenix", "STID": "D5529", "LONGITUDE": "-112.13740", "STATE": "AZ", "LATITUDE": "33.64340", "TIMEZONE": "America/Phoenix", "ID": "28853"}, {"STATUS": "ACTIVE", "MNET_ID": "65", "ELEVATION": "1100", "NAME": "DW6102 Chandler", "STID": "D6102", "LONGITUDE": "-111.94867", "STATE": "AZ", "LATITUDE": "33.31683", "TIMEZONE": "America/Phoenix", "ID": "29316"}, {"STATUS": "ACTIVE", "MNET_ID": "65", "ELEVATION": "1749", "NAME": "DW6093 Fountain Hills", "STID": "D6093", "LONGITUDE": "-111.73187", "STATE": "AZ", "LATITUDE": "33.60759", "TIMEZONE": "America/Phoenix", "ID": "29344"}, {"STATUS": "ACTIVE", "MNET_ID": "65", "ELEVATION": "1225", "NAME": "KB7KFC-3 Chandler", "STID": "AT810", "LONGITUDE": "-111.86652", "STATE": "AZ", "LATITUDE": "33.23362", "TIMEZONE": "America/Phoenix", "ID": "29366"}, {"STATUS": "ACTIVE", "MNET_ID": "65", "ELEVATION": "1342", "NAME": "W7PHX-1 Phoenix", "STID": "AT832", "LONGITUDE": "-112.07717", "STATE": "AZ", "LATITUDE": "33.61917", "TIMEZONE": "America/Phoenix", "ID": "29430"}, {"STATUS": "ACTIVE", "MNET_ID": "1", "ELEVATION": "1020", "NAME": "Buckeye Municipal Airport", "STID": "KBXK", "LONGITUDE": "-112.6862", "STATE": "AZ", "LATITUDE": "33.4204", "TIMEZONE": "America/Phoenix", "ID": "29470"}, {"STATUS": "ACTIVE", "MNET_ID": "65", "ELEVATION": "2543", "NAME": "WA8ULG Scottsdale", "STID": "AT849", "LONGITUDE": "-111.78550", "STATE": "AZ", "LATITUDE": "33.76133", "TIMEZONE": "America/Phoenix", "ID": "29475"}, {"STATUS": "ACTIVE", "MNET_ID": "21", "ELEVATION": "1150", "NAME": "City of Glendale", "STID": "MAGD", "LONGITUDE": "-112.1936", "STATE": "AZ", "LATITUDE": "33.5436", "TIMEZONE": "America/Phoenix", "ID": "29558"}, {"STATUS": "ACTIVE", "MNET_ID": "65", "ELEVATION": "1231", "NAME": "WB7TUJ Mesa", "STID": "AT933", "LONGITUDE": "-111.79380", "STATE": "AZ", "LATITUDE": "33.38830", "TIMEZONE": "America/Phoenix", "ID": "29926"}, {"STATUS": "ACTIVE", "MNET_ID": "65", "ELEVATION": "1275", "NAME": "DW6816 Gilbert", "STID": "D6816", "LONGITUDE": "-111.75183", "STATE": "AZ", "LATITUDE": "33.31150", "TIMEZONE": "America/Phoenix", "ID": "29931"}, {"STATUS": "ACTIVE", "MNET_ID": "65", "ELEVATION": "1152", "NAME": "DW6950 Phoenix", "STID": "D6950", "LONGITUDE": "-112.09805", "STATE": "AZ", "LATITUDE": "33.51413", "TIMEZONE": "America/Phoenix", "ID": "30064"}, {"STATUS": "ACTIVE", "MNET_ID": "65", "ELEVATION": "1316", "NAME": "DW6996 Phoenix", "STID": "D6996", "LONGITUDE": "-112.05270", "STATE": "AZ", "LATITUDE": "33.56530", "TIMEZONE": "America/Phoenix", "ID": "30111"}, {"STATUS": "ACTIVE", "MNET_ID": "65", "ELEVATION": "1457", "NAME": "DW6999 Phoenix", "STID": "D6999", "LONGITUDE": "-112.02714", "STATE": "AZ", "LATITUDE": "33.58947", "TIMEZONE": "America/Phoenix", "ID": "30112"}, {"STATUS": "ACTIVE", "MNET_ID": "65", "ELEVATION": "1477", "NAME": "DW7106 Phoenix", "STID": "D7106", "LONGITUDE": "-112.00402", "STATE": "AZ", "LATITUDE": "33.64662", "TIMEZONE": "America/Phoenix", "ID": "30179"}, {"STATUS": "INACTIVE", "MNET_ID": "65", "ELEVATION": "4101", "NAME": "DW7383 Mesa", "STID": "D7383", "LONGITUDE": "-111.98333", "STATE": "AZ", "LATITUDE": "33.65000", "TIMEZONE": "America/Phoenix", "ID": "30450"}, {"STATUS": "ACTIVE", "MNET_ID": "65", "ELEVATION": "1260", "NAME": "DW7673 Phoenix", "STID": "D7673", "LONGITUDE": "-112.02950", "STATE": "AZ", "LATITUDE": "33.31133", "TIMEZONE": "America/Phoenix", "ID": "30743"}, {"STATUS": "INACTIVE", "MNET_ID": "65", "ELEVATION": "2185", "NAME": "DW7682 Cave Creek", "STID": "D7682", "LONGITUDE": "-111.94200", "STATE": "AZ", "LATITUDE": "33.83033", "TIMEZONE": "America/Phoenix", "ID": "30756"}, {"STATUS": "INACTIVE", "MNET_ID": "65", "ELEVATION": "1430", "NAME": "DW7797 Queen Creek", "STID": "D7797", "LONGITUDE": "-111.64180", "STATE": "AZ", "LATITUDE": "33.20905", "TIMEZONE": "America/Phoenix", "ID": "30817"}, {"STATUS": "ACTIVE", "MNET_ID": "65", "ELEVATION": "1148", "NAME": "DW8261 Peoria", "STID": "D8261", "LONGITUDE": "-112.23014", "STATE": "AZ", "LATITUDE": "33.58304", "TIMEZONE": "America/Phoenix", "ID": "31259"}, {"STATUS": "INACTIVE", "MNET_ID": "106", "ELEVATION": "752", "NAME": "USRCRN SITE AT GILA BEND AIRPORT NEAR GILA BEND 3ENE", "STID": "GBDA3", "LONGITUDE": "-112.66972", "STATE": "AZ", "LATITUDE": "32.96472", "TIMEZONE": "America/Phoenix", "ID": "31524"}, {"STATUS": "INACTIVE", "MNET_ID": "106", "ELEVATION": "1403", "NAME": "USRCRN SITE AT SOUTH MOUNTAIN REGIONAL PARK NEAR PHOENIX 7S", "STID": "FNXA3", "LONGITUDE": "-112.08306", "STATE": "AZ", "LATITUDE": "33.34694", "TIMEZONE": "America/Phoenix", "ID": "31534"}, {"STATUS": "ACTIVE", "MNET_ID": "65", "ELEVATION": "2416", "NAME": "AB7AZ Cave Creek", "STID": "AU248", "LONGITUDE": "-111.93980", "STATE": "AZ", "LATITUDE": "33.87820", "TIMEZONE": "America/Phoenix", "ID": "31754"}, {"STATUS": "INACTIVE", "MNET_ID": "65", "ELEVATION": "1220", "NAME": "DW8990 Mesa", "STID": "D8990", "LONGITUDE": "-111.85750", "STATE": "AZ", "LATITUDE": "33.37400", "TIMEZONE": "America/Phoenix", "ID": "32085"}, {"STATUS": "INACTIVE", "MNET_ID": "65", "ELEVATION": "2710", "NAME": "N5XL Scottsdale", "STID": "AU332", "LONGITUDE": "-111.78633", "STATE": "AZ", "LATITUDE": "33.81217", "TIMEZONE": "America/Phoenix", "ID": "32293"}, {"STATUS": "ACTIVE", "MNET_ID": "65", "ELEVATION": "2047", "NAME": "DW9215 Cave Creek", "STID": "D9215", "LONGITUDE": "-111.94250", "STATE": "AZ", "LATITUDE": "33.74617", "TIMEZONE": "America/Phoenix", "ID": "32300"}, {"STATUS": "ACTIVE", "MNET_ID": "65", "ELEVATION": "1332", "NAME": "N7ZVJ-2 Gilbert", "STID": "AU340", "LONGITUDE": "-111.71571", "STATE": "AZ", "LATITUDE": "33.23133", "TIMEZONE": "America/Phoenix", "ID": "32467"}, {"STATUS": "INACTIVE", "MNET_ID": "65", "ELEVATION": "1085", "NAME": "EW0136 Litchfield Park", "STID": "E0136", "LONGITUDE": "-112.39250", "STATE": "AZ", "LATITUDE": "33.55083", "TIMEZONE": "America/Phoenix", "ID": "33932"}, {"STATUS": "ACTIVE", "MNET_ID": "65", "ELEVATION": "1071", "NAME": "wx7wx Glendale", "STID": "AU443", "LONGITUDE": "-112.23273", "STATE": "AZ", "LATITUDE": "33.51367", "TIMEZONE": "America/Phoenix", "ID": "34004"}, {"STATUS": "ACTIVE", "MNET_ID": "65", "ELEVATION": "1237", "NAME": "EW0706 Phoenix", "STID": "E0706", "LONGITUDE": "-111.99533", "STATE": "AZ", "LATITUDE": "33.37550", "TIMEZONE": "America/Phoenix", "ID": "34398"}, {"STATUS": "ACTIVE", "MNET_ID": "64", "ELEVATION": "1079", "NAME": "BOSQUE", "STID": "UP541", "LONGITUDE": "-112.55990", "STATE": "AZ", "LATITUDE": "32.97346", "TIMEZONE": "America/Phoenix", "ID": "34889"}, {"STATUS": "ACTIVE", "MNET_ID": "64", "ELEVATION": "868", "NAME": "BUKEYE", "STID": "UP543", "LONGITUDE": "-112.61999", "STATE": "AZ", "LATITUDE": "33.37689", "TIMEZONE": "America/Phoenix", "ID": "34891"}, {"STATUS": "ACTIVE", "MNET_ID": "64", "ELEVATION": "1227", "NAME": "GLBERT", "STID": "UP548", "LONGITUDE": "-111.78467", "STATE": "AZ", "LATITUDE": "33.34962", "TIMEZONE": "America/Phoenix", "ID": "34896"}, {"STATUS": "ACTIVE", "MNET_ID": "64", "ELEVATION": "1130", "NAME": "KENDAL", "STID": "UP549", "LONGITUDE": "-111.99080", "STATE": "AZ", "LATITUDE": "33.44426", "TIMEZONE": "America/Phoenix", "ID": "34897"}, {"STATUS": "ACTIVE", "MNET_ID": "64", "ELEVATION": "943", "NAME": "LTCHFL", "STID": "UP551", "LONGITUDE": "-112.34230", "STATE": "AZ", "LATITUDE": "33.43392", "TIMEZONE": "America/Phoenix", "ID": "34899"}, {"STATUS": "ACTIVE", "MNET_ID": "64", "ELEVATION": "1382", "NAME": "MOBIL1", "STID": "UP557", "LONGITUDE": "-112.31677", "STATE": "AZ", "LATITUDE": "33.04361", "TIMEZONE": "America/Phoenix", "ID": "34905"}, {"STATUS": "ACTIVE", "MNET_ID": "64", "ELEVATION": "757", "NAME": "PIEDRA", "STID": "UP561", "LONGITUDE": "-113.06667", "STATE": "AZ", "LATITUDE": "32.88034", "TIMEZONE": "America/Phoenix", "ID": "34909"}, {"STATUS": "ACTIVE", "MNET_ID": "64", "ELEVATION": "1446", "NAME": "QUNCRK", "STID": "UP562", "LONGITUDE": "-111.58753", "STATE": "AZ", "LATITUDE": "33.22385", "TIMEZONE": "America/Phoenix", "ID": "34910"}, {"STATUS": "ACTIVE", "MNET_ID": "64", "ELEVATION": "728", "NAME": "SMUR", "STID": "UP565", "LONGITUDE": "-112.79154", "STATE": "AZ", "LATITUDE": "32.93293", "TIMEZONE": "America/Phoenix", "ID": "34913"}, {"STATUS": "ACTIVE", "MNET_ID": "64", "ELEVATION": "553", "NAME": "STNWX1", "STID": "UP566", "LONGITUDE": "-113.30673", "STATE": "AZ", "LATITUDE": "32.84143", "TIMEZONE": "America/Phoenix", "ID": "34914"}, {"STATUS": "ACTIVE", "MNET_ID": "65", "ELEVATION": "1283", "NAME": "EW0265 Sun City West", "STID": "E0265", "LONGITUDE": "-112.32617", "STATE": "AZ", "LATITUDE": "33.69617", "TIMEZONE": "America/Phoenix", "ID": "36100"}, {"STATUS": "ACTIVE", "MNET_ID": "65", "ELEVATION": "1124", "NAME": "EW1258 Phoenix", "STID": "E1258", "LONGITUDE": "-112.14883", "STATE": "AZ", "LATITUDE": "33.50000", "TIMEZONE": "America/Phoenix", "ID": "36115"}, {"STATUS": "ACTIVE", "MNET_ID": "65", "ELEVATION": "1086", "NAME": "EW1464 Phoenix", "STID": "E1464", "LONGITUDE": "-111.99000", "STATE": "AZ", "LATITUDE": "33.41000", "TIMEZONE": "America/Phoenix", "ID": "36123"}, {"STATUS": "ACTIVE", "MNET_ID": "65", "ELEVATION": "1982", "NAME": "EW2157 Anthem", "STID": "E2157", "LONGITUDE": "-112.09631", "STATE": "AZ", "LATITUDE": "33.86129", "TIMEZONE": "America/Phoenix", "ID": "36585"}, {"STATUS": "ACTIVE", "MNET_ID": "65", "ELEVATION": "1194", "NAME": "EW2625 Tempe", "STID": "E2625", "LONGITUDE": "-111.89611", "STATE": "AZ", "LATITUDE": "33.37933", "TIMEZONE": "America/Phoenix", "ID": "39686"}, {"STATUS": "ACTIVE", "MNET_ID": "65", "ELEVATION": "1745", "NAME": "EW2739 Phoenix", "STID": "E2739", "LONGITUDE": "-112.04233", "STATE": "AZ", "LATITUDE": "33.61650", "TIMEZONE": "America/Phoenix", "ID": "39787"}, {"STATUS": "ACTIVE", "MNET_ID": "65", "ELEVATION": "1585", "NAME": "EW2864 Mesa", "STID": "E2864", "LONGITUDE": "-111.59667", "STATE": "AZ", "LATITUDE": "33.40450", "TIMEZONE": "America/Phoenix", "ID": "40017"}, {"STATUS": "ACTIVE", "MNET_ID": "65", "ELEVATION": "1198", "NAME": "EW2937 Surprise", "STID": "E2937", "LONGITUDE": "-112.41006", "STATE": "AZ", "LATITUDE": "33.58982", "TIMEZONE": "America/Phoenix", "ID": "40147"}, {"STATUS": "ACTIVE", "MNET_ID": "21", "ELEVATION": "5825", "NAME": "Sycamore Creek - Upper", "STID": "MSYC", "LONGITUDE": "-111.46431", "STATE": "AZ", "LATITUDE": "33.98761", "TIMEZONE": "America/Phoenix", "ID": "40503"}, {"STATUS": "ACTIVE", "MNET_ID": "65", "ELEVATION": "1634", "NAME": "EW3307 Scottsdale", "STID": "E3307", "LONGITUDE": "-111.85383", "STATE": "AZ", "LATITUDE": "33.63000", "TIMEZONE": "America/Phoenix", "ID": "40699"}, {"STATUS": "ACTIVE", "MNET_ID": "65", "ELEVATION": "1175", "NAME": "EW3342 Phoenix", "STID": "E3342", "LONGITUDE": "-111.98677", "STATE": "AZ", "LATITUDE": "33.29465", "TIMEZONE": "America/Phoenix", "ID": "40703"}, {"STATUS": "ACTIVE", "MNET_ID": "65", "ELEVATION": "1227", "NAME": "EW3438 Chandler", "STID": "E3438", "LONGITUDE": "-111.81833", "STATE": "AZ", "LATITUDE": "33.30383", "TIMEZONE": "America/Phoenix", "ID": "40802"}, {"STATUS": "ACTIVE", "MNET_ID": "183", "ELEVATION": "1181", "NAME": "Alameda", "STID": "SRP40", "LONGITUDE": "-111.92", "STATE": "AZ", "LATITUDE": "33.39", "TIMEZONE": "America/Phoenix", "ID": "41133"}, {"STATUS": "ACTIVE", "MNET_ID": "183", "ELEVATION": "1247", "NAME": "Arcadia", "STID": "SRP41", "LONGITUDE": "-112.00", "STATE": "AZ", "LATITUDE": "33.51", "TIMEZONE": "America/Phoenix", "ID": "41134"}, {"STATUS": "ACTIVE", "MNET_ID": "183", "ELEVATION": "1014", "NAME": "Collier", "STID": "SRP28", "LONGITUDE": "-112.29", "STATE": "AZ", "LATITUDE": "33.46", "TIMEZONE": "America/Phoenix", "ID": "41136"}, {"STATUS": "ACTIVE", "MNET_ID": "183", "ELEVATION": "1211", "NAME": "Corbell", "STID": "SRP37", "LONGITUDE": "-111.83", "STATE": "AZ", "LATITUDE": "33.36", "TIMEZONE": "America/Phoenix", "ID": "41137"}, {"STATUS": "ACTIVE", "MNET_ID": "183", "ELEVATION": "1366", "NAME": "Falcon Field", "STID": "SRP36", "LONGITUDE": "-111.74", "STATE": "AZ", "LATITUDE": "33.47", "TIMEZONE": "America/Phoenix", "ID": "41139"}, {"STATUS": "ACTIVE", "MNET_ID": "183", "ELEVATION": "1573", "NAME": "Fountain Hills", "STID": "SRP26", "LONGITUDE": "-111.71", "STATE": "AZ", "LATITUDE": "33.60", "TIMEZONE": "America/Phoenix", "ID": "41140"}, {"STATUS": "ACTIVE", "MNET_ID": "183", "ELEVATION": "1916", "NAME": "Horse Mesa Dam", "STID": "SRP45", "LONGITUDE": "-111.34", "STATE": "AZ", "LATITUDE": "33.59", "TIMEZONE": "America/Phoenix", "ID": "41141"}, {"STATUS": "ACTIVE", "MNET_ID": "183", "ELEVATION": "2022", "NAME": "Horseshoe Dam", "STID": "SRP19", "LONGITUDE": "-111.71", "STATE": "AZ", "LATITUDE": "33.98", "TIMEZONE": "America/Phoenix", "ID": "41142"}, {"STATUS": "ACTIVE", "MNET_ID": "183", "ELEVATION": "1262", "NAME": "Humphrey", "STID": "SRP15", "LONGITUDE": "-111.78", "STATE": "AZ", "LATITUDE": "33.22", "TIMEZONE": "America/Phoenix", "ID": "41143"}, {"STATUS": "ACTIVE", "MNET_ID": "183", "ELEVATION": "1031", "NAME": "Kay", "STID": "SRP32", "LONGITUDE": "-112.15", "STATE": "AZ", "LATITUDE": "33.42", "TIMEZONE": "America/Phoenix", "ID": "41144"}, {"STATUS": "ACTIVE", "MNET_ID": "183", "ELEVATION": "1657", "NAME": "Mormon Flat Dam", "STID": "SRP43", "LONGITUDE": "-111.44", "STATE": "AZ", "LATITUDE": "33.55", "TIMEZONE": "America/Phoenix", "ID": "41145"}, {"STATUS": "ACTIVE", "MNET_ID": "183", "ELEVATION": "947", "NAME": "Palo Verde", "STID": "SRP39", "LONGITUDE": "-112.86", "STATE": "AZ", "LATITUDE": "33.38", "TIMEZONE": "America/Phoenix", "ID": "41146"}, {"STATUS": "ACTIVE", "MNET_ID": "183", "ELEVATION": "1266", "NAME": "Pera", "STID": "SRP21", "LONGITUDE": "-111.94", "STATE": "AZ", "LATITUDE": "33.46", "TIMEZONE": "America/Phoenix", "ID": "41147"}, {"STATUS": "ACTIVE", "MNET_ID": "183", "ELEVATION": "1312", "NAME": "Perkins", "STID": "SRP25", "LONGITUDE": "-112.32", "STATE": "AZ", "LATITUDE": "33.71", "TIMEZONE": "America/Phoenix", "ID": "41148"}, {"STATUS": "ACTIVE", "MNET_ID": "183", "ELEVATION": "1233", "NAME": "Pringle", "STID": "SRP29", "LONGITUDE": "-112.11", "STATE": "AZ", "LATITUDE": "33.57", "TIMEZONE": "America/Phoenix", "ID": "41149"}, {"STATUS": "ACTIVE", "MNET_ID": "183", "ELEVATION": "1399", "NAME": "Rittenhouse", "STID": "SRP31", "LONGITUDE": "-111.64", "STATE": "AZ", "LATITUDE": "33.25", "TIMEZONE": "America/Phoenix", "ID": "41152"}, {"STATUS": "ACTIVE", "MNET_ID": "183", "ELEVATION": "2227", "NAME": "Roosevelt Dam", "STID": "SRP44", "LONGITUDE": "-111.16", "STATE": "AZ", "LATITUDE": "33.67", "TIMEZONE": "America/Phoenix", "ID": "41153"}, {"STATUS": "ACTIVE", "MNET_ID": "183", "ELEVATION": "1080", "NAME": "Sheely", "STID": "SRP34", "LONGITUDE": "-112.21", "STATE": "AZ", "LATITUDE": "33.49", "TIMEZONE": "America/Phoenix", "ID": "41154"}, {"STATUS": "ACTIVE", "MNET_ID": "183", "ELEVATION": "1188", "NAME": "SRP", "STID": "SRP01", "LONGITUDE": "-111.95", "STATE": "AZ", "LATITUDE": "33.44", "TIMEZONE": "America/Phoenix", "ID": "41156"}, {"STATUS": "ACTIVE", "MNET_ID": "183", "ELEVATION": "1253", "NAME": "Stapley", "STID": "SRP35", "LONGITUDE": "-111.80", "STATE": "AZ", "LATITUDE": "33.43", "TIMEZONE": "America/Phoenix", "ID": "41157"}, {"STATUS": "ACTIVE", "MNET_ID": "183", "ELEVATION": "1455", "NAME": "Stewart Mountain Dam", "STID": "SRP38", "LONGITUDE": "-111.54", "STATE": "AZ", "LATITUDE": "33.56", "TIMEZONE": "America/Phoenix", "ID": "41158"}, {"STATUS": "ACTIVE", "MNET_ID": "183", "ELEVATION": "1194", "NAME": "Sun Lakes", "STID": "SRP33", "LONGITUDE": "-111.88", "STATE": "AZ", "LATITUDE": "33.22", "TIMEZONE": "America/Phoenix", "ID": "41159"}, {"STATUS": "ACTIVE", "MNET_ID": "65", "ELEVATION": "1558", "NAME": "EW3986 North Phoenix", "STID": "E3986", "LONGITUDE": "-112.02317", "STATE": "AZ", "LATITUDE": "33.66200", "TIMEZONE": "America/Phoenix", "ID": "41912"}, {"STATUS": "ACTIVE", "MNET_ID": "65", "ELEVATION": "1204", "NAME": "EW4424 Chandler", "STID": "E4424", "LONGITUDE": "-111.85652", "STATE": "AZ", "LATITUDE": "33.32948", "TIMEZONE": "America/Phoenix", "ID": "42227"}, {"STATUS": "ACTIVE", "MNET_ID": "65", "ELEVATION": "1224", "NAME": "EW4443 Gilbert", "STID": "E4443", "LONGITUDE": "-111.81117", "STATE": "AZ", "LATITUDE": "33.34300", "TIMEZONE": "America/Phoenix", "ID": "42233"}, {"STATUS": "ACTIVE", "MNET_ID": "65", "ELEVATION": "1260", "NAME": "EW4431 Mesa", "STID": "E4431", "LONGITUDE": "-111.80817", "STATE": "AZ", "LATITUDE": "33.44733", "TIMEZONE": "America/Phoenix", "ID": "42301"}, {"STATUS": "ACTIVE", "MNET_ID": "136", "ELEVATION": "1163", "NAME": "Vehicle Emissions Laboratory", "STID": "A1339", "LONGITUDE": "-111.99170", "STATE": "AZ", "LATITUDE": "33.45420", "TIMEZONE": "America/Phoenix", "ID": "42775"}, {"STATUS": "ACTIVE", "MNET_ID": "65", "ELEVATION": "1100", "NAME": "EW4905 Tempe", "STID": "E4905", "LONGITUDE": "-111.90750", "STATE": "AZ", "LATITUDE": "33.42400", "TIMEZONE": "America/Phoenix", "ID": "42803"}, {"STATUS": "ACTIVE", "MNET_ID": "136", "ELEVATION": "1036", "NAME": "Phoenix JLG Supersite", "STID": "A1351", "LONGITUDE": "-112.09500", "STATE": "AZ", "LATITUDE": "33.50360", "TIMEZONE": "America/Phoenix", "ID": "42813"}, {"STATUS": "INACTIVE", "MNET_ID": "65", "ELEVATION": "1519", "NAME": "EW5153 Mesa", "STID": "E5153", "LONGITUDE": "-111.67400", "STATE": "AZ", "LATITUDE": "33.44000", "TIMEZONE": "America/Phoenix", "ID": "43052"}, {"STATUS": "ACTIVE", "MNET_ID": "65", "ELEVATION": "1112", "NAME": "KG7EVB El Mirage", "STID": "AU910", "LONGITUDE": "-112.32167", "STATE": "AZ", "LATITUDE": "33.59750", "TIMEZONE": "America/Phoenix", "ID": "43444"}, {"STATUS": "ACTIVE", "MNET_ID": "65", "ELEVATION": "1394", "NAME": "EW5693 Scottsdale", "STID": "E5693", "LONGITUDE": "-111.93967", "STATE": "AZ", "LATITUDE": "33.61100", "TIMEZONE": "America/Phoenix", "ID": "43589"}, {"STATUS": "ACTIVE", "MNET_ID": "65", "ELEVATION": "1150", "NAME": "EW5721 Peoria", "STID": "E5721", "LONGITUDE": "-112.22383", "STATE": "AZ", "LATITUDE": "33.59283", "TIMEZONE": "America/Phoenix", "ID": "43592"}, {"STATUS": "ACTIVE", "MNET_ID": "65", "ELEVATION": "1558", "NAME": "EW5814 Mesa", "STID": "E5814", "LONGITUDE": "-111.60000", "STATE": "AZ", "LATITUDE": "33.40000", "TIMEZONE": "America/Phoenix", "ID": "43691"}, {"STATUS": "INACTIVE", "MNET_ID": "65", "ELEVATION": "1316", "NAME": "EW6036 Scottsdale", "STID": "E6036", "LONGITUDE": "-111.92800", "STATE": "AZ", "LATITUDE": "33.50450", "TIMEZONE": "America/Phoenix", "ID": "43947"}, {"STATUS": "ACTIVE", "MNET_ID": "62", "ELEVATION": "3518", "NAME": "Bender Springs", "STID": "BBES", "LONGITUDE": "-112.38250", "STATE": "AZ", "LATITUDE": "32.68528", "TIMEZONE": "America/Phoenix", "ID": "44206"}, {"STATUS": "ACTIVE", "MNET_ID": "62", "ELEVATION": "790", "NAME": "Black Cross", "STID": "BBLC", "LONGITUDE": "-113.21778", "STATE": "AZ", "LATITUDE": "32.57111", "TIMEZONE": "America/Phoenix", "ID": "44207"}, {"STATUS": "ACTIVE", "MNET_ID": "62", "ELEVATION": "1402", "NAME": "ETAC Con Point", "STID": "BETC", "LONGITUDE": "-112.66806", "STATE": "AZ", "LATITUDE": "32.70833", "TIMEZONE": "America/Phoenix", "ID": "44208"}, {"STATUS": "ACTIVE", "MNET_ID": "62", "ELEVATION": "1197", "NAME": "Range 1", "STID": "BRG1", "LONGITUDE": "-112.93333", "STATE": "AZ", "LATITUDE": "32.55028", "TIMEZONE": "America/Phoenix", "ID": "44210"}, {"STATUS": "ACTIVE", "MNET_ID": "62", "ELEVATION": "927", "NAME": "Range 4", "STID": "BRG4", "LONGITUDE": "-112.93833", "STATE": "AZ", "LATITUDE": "32.78722", "TIMEZONE": "America/Phoenix", "ID": "44212"}, {"STATUS": "ACTIVE", "MNET_ID": "62", "ELEVATION": "2791", "NAME": "Weather Top", "STID": "BWET", "LONGITUDE": "-112.62389", "STATE": "AZ", "LATITUDE": "32.55694", "TIMEZONE": "America/Phoenix", "ID": "44216"}, {"STATUS": "ACTIVE", "MNET_ID": "65", "ELEVATION": "1316", "NAME": "EW6449 Glendale", "STID": "E6449", "LONGITUDE": "-112.21133", "STATE": "AZ", "LATITUDE": "33.69500", "TIMEZONE": "America/Phoenix", "ID": "44315"}, {"STATUS": "ACTIVE", "MNET_ID": "21", "ELEVATION": "1115", "NAME": "Camelback Rd. @ Citrus Rd.", "STID": "MACC", "LONGITUDE": "-112.44442", "STATE": "AZ", "LATITUDE": "33.50803", "TIMEZONE": "America/Phoenix", "ID": "44433"}, {"STATUS": "ACTIVE", "MNET_ID": "65", "ELEVATION": "1268", "NAME": "EW6696 Sun City West", "STID": "E6696", "LONGITUDE": "-112.35600", "STATE": "AZ", "LATITUDE": "33.67700", "TIMEZONE": "America/Phoenix", "ID": "44482"}, {"STATUS": "ACTIVE", "MNET_ID": "65", "ELEVATION": "1266", "NAME": "EW0209 Ahwatukee", "STID": "E0209", "LONGITUDE": "-111.99467", "STATE": "AZ", "LATITUDE": "33.33117", "TIMEZONE": "America/Phoenix", "ID": "44484"}, {"STATUS": "ACTIVE", "MNET_ID": "65", "ELEVATION": "1250", "NAME": "EW6518 Mesa", "STID": "E6518", "LONGITUDE": "-111.84546", "STATE": "AZ", "LATITUDE": "33.41787", "TIMEZONE": "America/Phoenix", "ID": "44485"}, {"STATUS": "ACTIVE", "MNET_ID": "21", "ELEVATION": "2170", "NAME": "Aguila VFD", "STID": "MAGV", "LONGITUDE": "-113.17214", "STATE": "AZ", "LATITUDE": "33.94093", "TIMEZONE": "America/Phoenix", "ID": "44761"}], "SUMMARY": {"TOTAL_TIME": "445.208787918 ms", "NUMBER_OF_OBJECTS": 250, "RESPONSE_CODE": 1, "RESPONSE_MESSAGE": "OK", "METADATA_RESPONSE_TIME": "427.287101746 ms"}}

